[
  {
    "name": "Noida Sector 62",
    "lat": 28.6304,
    "lng": 77.3652
  },
  {
    "name": "Noida Electronic City",
    "lat": 28.6286,
    "lng": 77.3745
  },
  {
    "name": "Noida Sector 59",
    "lat": 28.6277,
    "lng": 77.3639
  },
  {
    "name": "Noida Sector 61",
    "lat": 28.6280,
    "lng": 77.3697
  },
  {
    "name": "Noida Sector 52",
    "lat": 28.6024,
    "lng": 77.3680
  },
  {
    "name": "Botanical Garden",
    "lat": 28.5708,
    "lng": 77.3261
  },
  {
    "name": "Akshardham",
    "lat": 28.6127,
    "lng": 77.2773
  },
  {
    "name": "Rajiv Chowk",
    "lat": 28.6328,
    "lng": 77.2197
  },
  {
    "name": "Hauz Khas",
    "lat": 28.5494,
    "lng": 77.2061
  },
  {
    "name": "Dwarka Sector 21",
    "lat": 28.5519,
    "lng": 77.0486
  },
  {
    "name": "New Delhi",
    "lat": 28.6429,
    "lng": 77.2195
  },
  {
    "name": "Chandni Chowk",
    "lat": 28.6562,
    "lng": 77.2304
  },
  {
    "name": "Kashmere Gate",
    "lat": 28.6675,
    "lng": 77.2273
  },
  {
    "name": "Central Secretariat",
    "lat": 28.6143,
    "lng": 77.2089
  },
  {
    "name": "Lajpat Nagar",
    "lat": 28.5676,
    "lng": 77.2432
  },
  {
    "name": "Saket",
    "lat": 28.5246,
    "lng": 77.2061
  },
  {
    "name": "AIIMS",
    "lat": 28.5672,
    "lng": 77.2100
  },
  {
    "name": "Inderlok",
    "lat": 28.6670,
    "lng": 77.1639
  },
  {
    "name": "Netaji Subhash Place",
    "lat": 28.6903,
    "lng": 77.1480
  },
  {
    "name": "Pitampura",
    "lat": 28.6980,
    "lng": 77.1326
  },
  {
    "name": "Rohini West",
    "lat": 28.7235,
    "lng": 77.1039
  },
  {
    "name": "Rithala",
    "lat": 28.7297,
    "lng": 77.0945
  },
  {
    "name": "Shivaji Stadium",
    "lat": 28.6313,
    "lng": 77.2139
  },
  {
    "name": "Delhi Aerocity",
    "lat": 28.5511,
    "lng": 77.1192
  },
  {
    "name": "IGI Airport",
    "lat": 28.5562,
    "lng": 77.1000
  },
  {
    "name": "Dwarka Sector 8",
    "lat": 28.5535,
    "lng": 77.0675
  },
  {
    "name": "Dwarka Sector 10",
    "lat": 28.5731,
    "lng": 77.0360
  },
  {
    "name": "Janakpuri West",
    "lat": 28.6212,
    "lng": 77.0902
  },
  {
    "name": "Kirti Nagar",
    "lat": 28.6512,
    "lng": 77.1471
  },
  {
    "name": "Rajouri Garden",
    "lat": 28.6427,
    "lng": 77.1239
  },
  {
    "name": "Moti Nagar",
    "lat": 28.6514,
    "lng": 77.1362
  },
  {
    "name": "Karol Bagh",
    "lat": 28.6515,
    "lng": 77.1919
  },
  {
    "name": "Jhandewalan",
    "lat": 28.6460,
    "lng": 77.1950
  },
  {
    "name": "Patel Chowk",
    "lat": 28.6267,
    "lng": 77.2158
  },
  {
    "name": "Mandi House",
    "lat": 28.6271,
    "lng": 77.2351
  },
  {
    "name": "Pragati Maidan",
    "lat": 28.6184,
    "lng": 77.2430
  },
  {
    "name": "Indraprastha",
    "lat": 28.6139,
    "lng": 77.2445
  },
  {
    "name": "Yamuna Bank",
    "lat": 28.6149,
    "lng": 77.2682
  },
  {
    "name": "Mayur Vihar",
    "lat": 28.5966,
    "lng": 77.2875
  },
  {
    "name": "Mayur Vihar Ext.",
    "lat": 28.5894,
    "lng": 77.3020
  },
  {
    "name": "New Ashok Nagar",
    "lat": 28.5868,
    "lng": 77.3155
  },
  {
    "name": "Noida Sector 15",
    "lat": 28.5801,
    "lng": 77.3206
  },
  {
    "name": "Noida Sector 16",
    "lat": 28.5805,
    "lng": 77.3265
  },
  {
    "name": "Golf Course",
    "lat": 28.5671,
    "lng": 77.3333
  },
  {
    "name": "Noida City Centre",
    "lat": 28.5709,
    "lng": 77.3639
  }
]
